City_ID,City,Lat,Lng,Max Temp,Humidity,Cloudiness,Wind Speed,Country,Date
0,conduaga,8.862,117.4893,79.86,82,5,6.29,PH,Mon Dec 11 10:58:25 2023
1,oamaru,-45.0784,170.9801,52.38,86,100,11.74,NZ,Mon Dec 11 10:58:25 2023
2,basco,20.4487,121.9702,79.72,78,14,12.77,PH,Mon Dec 11 10:58:25 2023
3,palikir - national government center,6.9248,158.1611,81.34,83,40,5.75,FM,Mon Dec 11 10:58:25 2023
4,howrah,22.5892,88.3103,68.0,68,0,3.44,IN,Mon Dec 11 10:58:26 2023
5,hermanus,-34.4187,19.2345,66.99,66,0,9.24,ZA,Mon Dec 11 10:58:26 2023
6,port isabel,26.0734,-97.2086,63.03,71,0,0.0,US,Mon Dec 11 10:58:26 2023
7,micheweni,-4.9667,39.8333,81.25,79,80,6.33,TZ,Mon Dec 11 10:58:26 2023
8,whitehorse,60.7161,-135.0538,21.97,86,75,21.85,CA,Mon Dec 11 10:58:26 2023
9,avarua,-21.2078,-159.775,77.05,88,75,24.16,CK,Mon Dec 11 10:58:26 2023
10,puerto quijarro,-17.7833,-57.7667,103.17,32,84,4.52,BO,Mon Dec 11 10:58:26 2023
11,ataq,14.5377,46.8319,65.77,22,5,5.28,YE,Mon Dec 11 10:58:27 2023
12,san salvador de jujuy,-24.1946,-65.2971,78.33,47,79,7.81,AR,Mon Dec 11 10:58:27 2023
13,edinburgh of the seven seas,-37.0676,-12.3116,55.74,83,100,19.91,SH,Mon Dec 11 10:58:27 2023
14,grytviken,-54.2811,-36.5092,40.44,91,98,11.77,GS,Mon Dec 11 10:58:27 2023
15,kavarna,43.4333,28.3333,38.57,98,99,4.76,BG,Mon Dec 11 10:58:27 2023
16,puerto ayora,-0.7393,-90.3518,82.36,77,45,8.9,EC,Mon Dec 11 10:58:27 2023
17,petropavlovsk-kamchatsky,53.0452,158.6483,21.79,87,75,17.0,RU,Mon Dec 11 10:58:27 2023
18,utrik,11.2278,169.8474,80.78,79,55,18.59,MH,Mon Dec 11 10:58:27 2023
19,wewak,-3.5534,143.6268,79.59,90,91,14.25,PG,Mon Dec 11 10:58:28 2023
20,puerto natales,-51.7236,-72.4875,52.25,46,75,11.5,CL,Mon Dec 11 10:58:28 2023
21,san patricio,28.017,-97.5169,61.86,25,86,4.27,US,Mon Dec 11 10:58:28 2023
22,ribeira grande,38.5167,-28.7,63.77,77,40,13.8,PT,Mon Dec 11 10:58:28 2023
23,sayre,41.979,-76.5155,37.65,61,67,13.82,US,Mon Dec 11 10:58:28 2023
24,albany,42.6001,-73.9662,38.64,87,98,3.0,US,Mon Dec 11 10:58:28 2023
25,badger,64.8,-147.5333,17.47,73,100,4.61,US,Mon Dec 11 10:58:29 2023
26,invercargill,-46.4,168.35,46.18,80,59,18.34,NZ,Mon Dec 11 10:58:29 2023
27,kupang,-10.1667,123.5833,81.18,100,20,1.14,ID,Mon Dec 11 10:54:35 2023
28,namibe,-15.1961,12.1522,74.26,68,72,12.24,AO,Mon Dec 11 10:58:29 2023
29,tiksi,71.6872,128.8694,-10.37,99,100,9.01,RU,Mon Dec 11 10:58:29 2023
30,port elizabeth,-33.918,25.5701,73.69,73,20,13.8,ZA,Mon Dec 11 10:58:29 2023
31,dudinka,69.4058,86.1778,-12.32,98,100,14.0,RU,Mon Dec 11 10:58:29 2023
32,lihue,21.9789,-159.3672,76.59,86,100,11.5,US,Mon Dec 11 10:58:29 2023
33,kanazawa,36.5944,136.6256,48.2,91,100,11.56,JP,Mon Dec 11 10:54:19 2023
34,baissa,7.2333,10.6333,90.73,20,28,3.76,NG,Mon Dec 11 10:58:30 2023
35,adamstown,-25.066,-130.1015,70.29,60,5,4.94,PN,Mon Dec 11 10:58:30 2023
36,waitangi,-43.9535,-176.5597,55.81,87,98,3.0,NZ,Mon Dec 11 10:58:30 2023
37,port-aux-francais,-49.35,70.2167,40.71,88,56,17.94,TF,Mon Dec 11 10:58:30 2023
38,kodiak,57.79,-152.4072,33.31,80,100,8.05,US,Mon Dec 11 10:58:30 2023
39,queenstown,-31.8976,26.8753,69.76,58,85,6.11,ZA,Mon Dec 11 10:55:01 2023
40,potchefstroom,-26.7167,27.1,63.91,68,100,3.47,ZA,Mon Dec 11 10:58:30 2023
41,chonchi,-42.6128,-73.8092,56.41,98,100,1.97,CL,Mon Dec 11 10:58:30 2023
42,ta`u,-14.2336,-169.5144,80.01,87,87,18.92,AS,Mon Dec 11 10:58:31 2023
43,jamestown,42.097,-79.2353,35.19,92,100,19.57,US,Mon Dec 11 10:56:41 2023
44,st. john's,47.5649,-52.7093,50.14,93,100,20.71,CA,Mon Dec 11 10:57:01 2023
45,kingston,17.997,-76.7936,87.24,71,20,10.36,JM,Mon Dec 11 10:58:02 2023
46,nuku'alofa,-21.1333,-175.2,66.54,94,20,0.0,TO,Mon Dec 11 10:58:31 2023
47,anadyr,64.75,177.4833,-14.01,75,8,8.95,RU,Mon Dec 11 10:56:09 2023
48,college,64.8569,-147.8028,17.55,73,100,4.61,US,Mon Dec 11 10:58:31 2023
49,malaga,36.7202,-4.4203,72.18,100,40,4.61,ES,Mon Dec 11 10:54:07 2023
50,kununurra,-15.7667,128.7333,84.18,74,53,3.44,AU,Mon Dec 11 10:58:32 2023
51,camocim,-2.9022,-40.8411,91.44,50,100,16.13,BR,Mon Dec 11 10:58:32 2023
52,xinxiang,35.3089,113.8672,28.44,92,100,1.68,CN,Mon Dec 11 10:58:32 2023
53,port mathurin,-19.6833,63.4167,79.68,73,100,7.36,MU,Mon Dec 11 10:58:32 2023
54,iqaluit,63.7506,-68.5145,-0.67,78,75,25.32,CA,Mon Dec 11 10:58:32 2023
55,broome,42.2506,-75.833,35.89,92,100,9.22,US,Mon Dec 11 10:58:32 2023
56,kourou,5.1552,-52.6478,89.65,63,27,8.46,GF,Mon Dec 11 10:58:32 2023
57,luderitz,-26.6481,15.1594,74.26,53,0,32.28,NA,Mon Dec 11 10:58:33 2023
58,bridgewater,44.3835,-64.5155,58.1,90,100,27.63,CA,Mon Dec 11 10:58:33 2023
59,blackmans bay,-43.0167,147.3167,50.52,91,67,2.8,AU,Mon Dec 11 10:58:33 2023
60,berkane,34.9084,-2.3461,85.68,36,68,2.17,MA,Mon Dec 11 10:58:33 2023
61,torres,-29.3353,-49.7269,77.86,75,56,7.94,BR,Mon Dec 11 10:54:55 2023
62,constantia,44.1833,28.65,34.7,69,100,6.49,RO,Mon Dec 11 10:54:06 2023
63,ushuaia,-54.8,-68.3,49.66,46,0,5.75,AR,Mon Dec 11 10:58:33 2023
64,pointe-noire,-4.7761,11.8635,87.87,70,20,11.5,CG,Mon Dec 11 10:58:33 2023
65,fort bragg,35.139,-79.006,46.81,65,20,14.97,US,Mon Dec 11 10:58:34 2023
66,ar ruways,24.1103,52.7306,72.59,59,100,4.27,AE,Mon Dec 11 10:58:34 2023
67,lincheng,19.9078,109.6858,73.06,86,5,5.44,CN,Mon Dec 11 10:58:34 2023
68,amherst,41.3978,-82.2224,34.88,72,100,11.5,US,Mon Dec 11 10:58:34 2023
69,margaret river,-33.95,115.0667,60.71,73,0,7.45,AU,Mon Dec 11 10:58:34 2023
70,morogoro,-6.8167,37.6667,82.58,65,40,0.0,TZ,Mon Dec 11 10:58:34 2023
71,bethel,41.3712,-73.414,41.36,86,100,5.75,US,Mon Dec 11 10:58:34 2023
72,yellowknife,62.456,-114.3525,-7.08,84,0,8.05,CA,Mon Dec 11 10:58:35 2023
73,guelendeng,10.9176,15.5501,84.51,14,62,8.75,TD,Mon Dec 11 10:58:35 2023
74,port alfred,-33.5906,26.891,73.18,81,8,4.0,ZA,Mon Dec 11 10:58:35 2023
75,wailua homesteads,22.0669,-159.378,75.99,88,100,11.5,US,Mon Dec 11 10:58:35 2023
76,longyearbyen,78.2186,15.6401,22.84,68,75,19.57,SJ,Mon Dec 11 10:58:35 2023
77,east london,-33.0153,27.9116,72.54,78,75,17.27,ZA,Mon Dec 11 10:58:35 2023
78,alofi,-19.0595,-169.9187,76.89,100,100,6.91,NU,Mon Dec 11 10:58:35 2023
79,vilyuchinsk,52.9306,158.4028,23.27,81,15,10.38,RU,Mon Dec 11 10:58:36 2023
80,klyuchi,52.2667,79.1667,-9.09,85,92,13.22,RU,Mon Dec 11 10:58:36 2023
81,olonkinbyen,70.9221,-8.7187,31.26,98,100,19.13,SJ,Mon Dec 11 10:58:36 2023
82,new norfolk,-42.7826,147.0587,51.71,98,87,2.3,AU,Mon Dec 11 10:58:36 2023
83,castillos,-34.1667,-53.8333,74.12,60,11,11.16,UY,Mon Dec 11 10:58:36 2023
84,timaru,-44.4,171.25,50.97,79,80,6.64,NZ,Mon Dec 11 10:58:36 2023
85,nabire,-3.3667,135.4833,77.36,92,100,2.28,ID,Mon Dec 11 10:58:36 2023
86,xuanzhou,30.9525,118.7553,39.0,91,100,8.03,CN,Mon Dec 11 10:58:36 2023
87,mejit,10.2753,170.8646,80.65,71,50,20.04,MH,Mon Dec 11 10:58:37 2023
88,aykhal,66.0,111.5,-15.16,98,100,4.34,RU,Mon Dec 11 10:58:37 2023
89,udachny,66.4167,112.4,-13.52,96,100,10.25,RU,Mon Dec 11 10:58:37 2023
90,princeville,45.7668,-61.2985,61.75,90,100,18.41,CA,Mon Dec 11 10:58:37 2023
91,teguise,29.0605,-13.564,68.22,53,0,12.66,ES,Mon Dec 11 10:58:37 2023
92,atafu village,-8.5421,-172.5159,82.4,82,100,25.79,TK,Mon Dec 11 10:58:37 2023
93,tangalle,6.024,80.7911,78.96,90,65,2.44,LK,Mon Dec 11 10:58:38 2023
94,saki,8.6667,3.3833,91.47,12,3,6.38,NG,Mon Dec 11 10:58:38 2023
95,aasiaat,68.7098,-52.8699,28.45,89,100,15.05,GL,Mon Dec 11 10:58:38 2023
96,hawaiian paradise park,19.5933,-154.9731,72.03,98,100,4.61,US,Mon Dec 11 10:58:38 2023
97,lebu,-37.6167,-73.65,60.01,73,86,8.57,CL,Mon Dec 11 10:58:38 2023
98,isafjordur,66.0755,-23.124,28.44,74,100,6.91,IS,Mon Dec 11 10:58:38 2023
99,halikko,60.4,23.0833,24.31,91,100,5.99,FI,Mon Dec 11 10:58:39 2023
100,hadibu,12.65,54.0333,77.27,64,9,12.71,YE,Mon Dec 11 10:58:39 2023
101,papatowai,-46.5619,169.4708,46.87,75,22,18.79,NZ,Mon Dec 11 10:58:40 2023
102,qrendi,35.8347,14.4583,63.1,67,20,8.05,MT,Mon Dec 11 10:58:40 2023
103,pimentel,-6.8367,-79.9342,75.49,69,20,12.66,PE,Mon Dec 11 10:58:40 2023
104,qujing,25.4833,103.7833,47.8,71,0,3.44,CN,Mon Dec 11 10:58:41 2023
105,la'ie,21.6477,-157.9253,76.1,87,35,4.0,US,Mon Dec 11 10:58:41 2023
106,west island,-12.1568,96.8225,78.78,73,4,9.22,CC,Mon Dec 11 10:53:55 2023
107,swakopmund,-22.6833,14.5333,65.98,76,1,3.0,NA,Mon Dec 11 10:58:42 2023
108,hami,42.8,93.45,29.64,48,100,2.28,CN,Mon Dec 11 10:58:42 2023
109,vadso,70.0744,29.7487,19.56,79,100,14.97,NO,Mon Dec 11 10:58:43 2023
110,omdurman,15.6445,32.4777,85.71,8,100,8.63,SD,Mon Dec 11 10:58:43 2023
111,tazovsky,67.4667,78.7,-12.71,95,100,9.51,RU,Mon Dec 11 10:58:44 2023
112,riberalta,-10.9833,-66.1,86.2,79,75,6.91,BO,Mon Dec 11 10:58:44 2023
113,pamandzi,-12.7967,45.2794,83.98,70,0,5.75,YT,Mon Dec 11 10:58:45 2023
114,batang berjuntai,3.3833,101.4167,80.44,93,100,3.09,MY,Mon Dec 11 10:58:45 2023
115,fada,9.5667,8.3,85.51,19,0,9.13,NG,Mon Dec 11 10:58:45 2023
116,saint-joseph,-21.3667,55.6167,77.38,78,52,10.22,RE,Mon Dec 11 10:58:45 2023
117,chibougamau,49.9168,-74.3659,19.02,93,100,9.22,CA,Mon Dec 11 10:58:45 2023
118,fonyod,46.7555,17.5795,46.58,92,84,4.36,HU,Mon Dec 11 10:58:45 2023
119,beroroha,-21.6667,45.1667,92.01,38,62,9.04,MG,Mon Dec 11 10:58:45 2023
120,margate,51.3813,1.3862,50.11,74,28,4.0,GB,Mon Dec 11 10:57:15 2023
121,gebeit,21.0667,36.3167,81.23,46,100,6.58,SD,Mon Dec 11 10:58:46 2023
122,ancud,-41.8697,-73.8203,54.28,93,100,9.78,CL,Mon Dec 11 10:58:46 2023
123,aktas,49.7789,72.9608,-18.65,86,100,16.51,KZ,Mon Dec 11 10:58:46 2023
124,ilulissat,69.2167,-51.1,34.97,66,100,15.39,GL,Mon Dec 11 10:58:46 2023
125,keflavik,64.0049,-22.5624,36.03,87,40,14.97,IS,Mon Dec 11 10:58:46 2023
126,walvis bay,-22.9575,14.5053,66.09,68,8,7.38,NA,Mon Dec 11 10:58:46 2023
127,bilibino,68.0546,166.4372,-1.19,94,100,3.06,RU,Mon Dec 11 10:58:46 2023
128,talnakh,69.4865,88.3972,-14.8,98,100,9.69,RU,Mon Dec 11 10:58:46 2023
129,sur,22.5667,59.5289,76.41,59,78,9.19,OM,Mon Dec 11 10:58:47 2023
130,haiku-pauwela,20.9219,-156.3051,75.04,88,75,0.0,US,Mon Dec 11 10:58:47 2023
131,smithers,54.7804,-127.1743,25.12,93,100,4.61,CA,Mon Dec 11 10:58:47 2023
132,mpulungu,-8.7623,31.1141,74.35,88,99,1.81,ZM,Mon Dec 11 10:58:47 2023
133,arambol,15.6868,73.7045,84.09,70,73,5.66,IN,Mon Dec 11 10:58:47 2023
134,tolanaro,-25.0319,46.9987,84.27,79,20,20.71,MG,Mon Dec 11 10:58:47 2023
135,bikenibeu village,1.3673,173.1241,78.76,94,40,1.14,KI,Mon Dec 11 10:58:47 2023
136,west valley,46.5921,-120.6051,37.58,93,100,5.75,US,Mon Dec 11 10:58:48 2023
137,mount pearl,47.5166,-52.7813,49.32,94,100,20.71,CA,Mon Dec 11 10:58:48 2023
138,gereida,11.2811,25.1414,83.12,16,73,3.53,SD,Mon Dec 11 10:58:48 2023
139,mungaoli,24.4167,78.1,62.69,41,1,4.23,IN,Mon Dec 11 10:58:48 2023
140,silver city,32.7701,-108.2803,51.31,23,0,0.0,US,Mon Dec 11 10:58:49 2023
141,cut off,29.5427,-90.3381,51.8,46,0,10.36,US,Mon Dec 11 10:58:49 2023
142,pionerskiy,54.9508,20.2275,33.64,89,100,7.7,RU,Mon Dec 11 10:58:49 2023
143,coquimbo,-29.9533,-71.3436,67.73,68,40,9.22,CL,Mon Dec 11 10:54:21 2023
144,thompson,55.7435,-97.8558,15.96,86,100,11.5,CA,Mon Dec 11 10:58:49 2023
145,saint-pierre,-21.3393,55.4781,78.48,73,0,23.02,RE,Mon Dec 11 10:58:49 2023
146,caleta de carquin,-11.0925,-77.6267,72.57,71,8,11.25,PE,Mon Dec 11 10:58:49 2023
147,nuuk,64.1835,-51.7216,34.88,69,99,55.99,GL,Mon Dec 11 10:58:49 2023
148,brownsville,25.9018,-97.4975,62.91,60,0,0.0,US,Mon Dec 11 10:55:56 2023
149,iquique,-20.2208,-70.1431,71.64,65,55,8.86,CL,Mon Dec 11 10:58:38 2023
150,kapa'a,22.0752,-159.319,77.32,86,100,11.5,US,Mon Dec 11 10:58:50 2023
151,tsumeb,-19.2333,17.7167,93.0,13,65,12.75,NA,Mon Dec 11 10:58:50 2023
152,mil'kovo,55.6078,37.7956,20.34,95,100,15.12,RU,Mon Dec 11 10:58:50 2023
153,ponta delgada,37.7333,-25.6667,65.19,72,20,12.66,PT,Mon Dec 11 10:54:44 2023
154,kaoma,-14.7833,24.8,68.11,96,97,5.08,ZM,Mon Dec 11 10:58:50 2023
155,rondonopolis,-16.4708,-54.6356,104.67,25,64,3.36,BR,Mon Dec 11 10:58:50 2023
156,sogndal,61.2283,7.1003,32.38,63,20,8.05,NO,Mon Dec 11 10:58:50 2023
157,camana,-16.6228,-72.7111,72.55,73,76,9.15,PE,Mon Dec 11 10:58:50 2023
158,dunedin,-45.8742,170.5036,50.81,70,75,20.0,NZ,Mon Dec 11 10:57:34 2023
159,san vicente de chucuri,6.881,-73.4098,85.37,60,90,3.44,CO,Mon Dec 11 10:58:51 2023
160,kavaratti,10.5669,72.642,83.98,70,57,2.44,IN,Mon Dec 11 10:58:51 2023
161,nemuro,43.3236,145.575,34.59,54,95,5.03,JP,Mon Dec 11 10:58:51 2023
162,fortuna,40.5982,-124.1573,49.35,97,100,0.0,US,Mon Dec 11 10:58:51 2023
163,hagere maryam,5.6333,38.2333,64.04,65,81,3.78,ET,Mon Dec 11 10:58:51 2023
164,castanos,26.7833,-101.4167,55.9,41,100,1.97,MX,Mon Dec 11 10:58:51 2023
165,lielvarde,56.7207,24.8074,27.41,96,100,8.32,LV,Mon Dec 11 10:58:52 2023
166,la passe,45.5549,-0.8967,57.43,97,100,14.5,FR,Mon Dec 11 10:58:52 2023
167,kone,-21.0595,164.8658,72.09,76,94,3.65,NC,Mon Dec 11 10:58:52 2023
168,cabo san lucas,22.8909,-109.9124,78.76,63,0,3.74,MX,Mon Dec 11 10:55:47 2023
169,taroa,8.7058,171.2275,81.36,71,99,20.78,MH,Mon Dec 11 10:58:52 2023
170,bredasdorp,-34.5322,20.0403,71.33,45,0,12.75,ZA,Mon Dec 11 10:58:52 2023
171,tamanrasset,22.785,5.5228,73.31,14,0,17.27,DZ,Mon Dec 11 10:58:52 2023
172,egilsstadir,65.2653,-14.3948,24.71,74,0,9.22,IS,Mon Dec 11 10:58:52 2023
173,ambodifotatra,-16.9833,49.85,84.25,79,75,4.61,MG,Mon Dec 11 10:58:52 2023
174,bure,10.7,37.0667,63.72,51,100,4.54,ET,Mon Dec 11 10:58:53 2023
175,petawawa,45.9001,-77.3328,26.19,83,100,13.8,CA,Mon Dec 11 10:58:53 2023
176,at taj,24.2049,23.2857,60.3,54,0,10.69,LY,Mon Dec 11 10:58:53 2023
177,piacabucu,-10.4056,-36.4344,86.52,55,18,14.5,BR,Mon Dec 11 10:58:53 2023
178,salalah,17.0151,54.0924,78.89,47,0,1.14,OM,Mon Dec 11 10:54:55 2023
179,ust-nera,64.5667,143.2,-6.03,99,100,8.88,RU,Mon Dec 11 10:58:53 2023
180,hasaki,35.7333,140.8333,54.28,75,100,9.1,JP,Mon Dec 11 10:58:53 2023
181,damghan,36.1683,54.348,48.13,66,85,3.38,IR,Mon Dec 11 10:58:53 2023
182,tralee,52.2704,-9.7026,53.85,87,20,6.91,IE,Mon Dec 11 10:58:54 2023
183,malango,-2.9627,119.9001,68.94,97,100,2.48,ID,Mon Dec 11 10:58:54 2023
184,qaqortoq,60.7167,-46.0333,27.57,92,100,16.78,GL,Mon Dec 11 10:58:54 2023
185,plastun,44.7561,136.2939,7.54,55,99,10.54,RU,Mon Dec 11 10:58:54 2023
186,arno,60.1167,18.6333,29.79,86,100,13.33,SE,Mon Dec 11 10:58:54 2023
187,ryazanskaya,44.9553,39.5889,42.46,80,100,11.68,RU,Mon Dec 11 10:58:54 2023
188,san julian,21.0167,-102.1667,54.45,65,100,6.42,MX,Mon Dec 11 10:58:54 2023
189,stanley,54.868,-1.6985,41.79,91,20,4.61,GB,Mon Dec 11 10:58:55 2023
190,lazaro cardenas,17.9583,-102.2,81.63,57,98,10.83,MX,Mon Dec 11 10:58:55 2023
191,richards bay,-28.783,32.0377,68.31,96,100,2.82,ZA,Mon Dec 11 10:58:55 2023
192,xichang,27.8964,102.2634,48.72,77,1,2.24,CN,Mon Dec 11 10:58:55 2023
193,clovis,36.8252,-119.7029,53.67,90,20,0.0,US,Mon Dec 11 10:56:25 2023
194,sinabang,2.4803,96.3801,79.09,82,80,2.71,ID,Mon Dec 11 10:58:55 2023
195,pavlohrad,48.5167,35.8667,34.86,100,100,5.91,UA,Mon Dec 11 10:58:55 2023
196,buta,2.7858,24.73,81.97,65,57,2.01,CD,Mon Dec 11 10:58:55 2023
197,dong ha,16.8163,107.1003,72.84,96,20,0.54,VN,Mon Dec 11 10:58:56 2023
198,francisco i. madero,29.7059,-107.8043,53.98,17,4,5.23,MX,Mon Dec 11 10:58:56 2023
199,murghob,38.1702,73.9667,7.25,66,46,7.58,TJ,Mon Dec 11 10:58:56 2023
200,la ronge,55.1001,-105.2842,14.25,67,100,25.32,CA,Mon Dec 11 10:58:56 2023
201,dalandzadgad,43.5708,104.425,22.03,53,100,0.83,MN,Mon Dec 11 10:58:56 2023
202,phnom penh,11.5625,104.916,85.91,70,20,2.3,KH,Mon Dec 11 10:58:56 2023
203,punta arenas,-53.15,-70.9167,50.11,46,100,11.5,CL,Mon Dec 11 10:58:56 2023
204,crane,31.3974,-102.3501,50.86,21,3,3.31,US,Mon Dec 11 10:58:56 2023
205,sitka,57.0531,-135.33,42.69,75,100,14.97,US,Mon Dec 11 10:58:57 2023
206,turinskaya sloboda,57.6232,64.3858,-27.35,100,6,0.74,RU,Mon Dec 11 10:58:57 2023
207,fort st. john,56.2499,-120.8529,17.49,73,75,8.05,CA,Mon Dec 11 10:58:57 2023
208,kavieng,-2.5744,150.7967,81.1,83,97,5.55,PG,Mon Dec 11 10:58:57 2023
209,murbad,19.25,73.4,75.97,53,39,2.33,IN,Mon Dec 11 10:58:57 2023
210,sirte,31.2089,16.5887,66.36,58,9,22.77,LY,Mon Dec 11 10:58:57 2023
211,port macquarie,-31.4333,152.9167,62.89,90,3,5.77,AU,Mon Dec 11 10:58:57 2023
212,bangor trident base,47.7227,-122.7145,46.62,93,71,3.0,US,Mon Dec 11 10:58:58 2023
213,sanya,18.2431,109.505,77.16,83,75,4.47,CN,Mon Dec 11 10:58:58 2023
214,uturoa,-16.7333,-151.4333,80.62,75,62,20.92,PF,Mon Dec 11 10:58:58 2023
215,terme,41.2092,36.9739,56.03,75,100,2.46,TR,Mon Dec 11 10:58:58 2023
216,bandarbeyla,9.4942,50.8122,78.35,73,83,20.96,SO,Mon Dec 11 10:58:58 2023
217,pachino,36.7186,15.0907,60.17,67,14,12.84,IT,Mon Dec 11 10:58:58 2023
218,yamoussoukro,6.8206,-5.2767,91.29,52,40,6.91,CI,Mon Dec 11 10:58:58 2023
219,rongelap,11.1635,166.8941,81.77,77,46,18.01,MH,Mon Dec 11 10:58:58 2023
220,mana,5.6592,-53.7767,85.5,67,26,9.86,GF,Mon Dec 11 10:58:59 2023
221,polonnaruwa,7.9333,81.0,75.38,95,55,1.92,LK,Mon Dec 11 10:58:59 2023
222,tindouf,27.6711,-8.1474,73.85,20,72,18.41,DZ,Mon Dec 11 10:58:59 2023
223,isfana,39.8386,69.5306,28.96,87,100,4.5,KG,Mon Dec 11 10:58:59 2023
224,katsuura,35.1333,140.3,57.22,82,100,4.21,JP,Mon Dec 11 10:58:59 2023
225,konin,52.2234,18.2512,40.05,92,100,14.79,PL,Mon Dec 11 10:58:59 2023
226,yelizovo,53.1873,158.3805,23.14,68,75,6.71,RU,Mon Dec 11 10:58:59 2023
227,mandiana,10.6333,-8.6833,93.99,10,91,4.81,GN,Mon Dec 11 10:59:00 2023
228,susuman,62.7833,148.1667,-7.02,96,100,5.01,RU,Mon Dec 11 10:59:00 2023
229,phek,25.6667,94.5,43.36,98,6,1.59,IN,Mon Dec 11 10:59:00 2023
230,rabigh,22.7986,39.0349,82.99,67,68,8.99,SA,Mon Dec 11 10:59:00 2023
231,paracuru,-3.41,-39.0306,84.11,54,66,14.9,BR,Mon Dec 11 10:59:00 2023
232,gao,16.6362,1.637,81.66,13,0,15.88,ML,Mon Dec 11 10:59:00 2023
233,saipan,15.1355,145.701,81.3,83,20,10.36,MP,Mon Dec 11 10:59:00 2023
234,remire-montjoly,4.9167,-52.2667,89.64,62,20,9.22,GF,Mon Dec 11 10:59:00 2023
235,alliance,40.9153,-81.1059,33.4,68,68,14.18,US,Mon Dec 11 10:54:58 2023
236,bardai,11.65,7.2333,79.7,16,6,12.91,NG,Mon Dec 11 10:59:01 2023
237,carnarvon,-24.8667,113.6333,76.44,61,0,10.18,AU,Mon Dec 11 10:59:01 2023
238,pedregal,8.3667,-82.4333,87.89,80,20,2.3,PA,Mon Dec 11 10:59:01 2023
239,georgetown,5.4112,100.3354,78.94,94,40,2.3,MY,Mon Dec 11 10:58:57 2023
240,karratha,-20.7377,116.8463,78.84,45,0,10.0,AU,Mon Dec 11 10:59:01 2023
241,katsuren-haebaru,26.3369,127.8719,75.97,94,75,5.75,JP,Mon Dec 11 10:59:01 2023
242,mantua,45.1667,10.7833,43.05,91,99,1.01,IT,Mon Dec 11 10:59:01 2023
243,faya-largeau,17.9257,19.1043,73.54,24,0,15.37,TD,Mon Dec 11 10:59:02 2023
244,loukhi,66.0764,33.0381,-1.97,100,89,4.63,RU,Mon Dec 11 10:59:02 2023
245,griffith,41.5284,-87.4237,30.27,69,100,6.91,US,Mon Dec 11 10:59:02 2023
246,vera cruz,-12.6333,-41.0333,93.56,27,65,7.23,BR,Mon Dec 11 10:56:43 2023
247,quinte west,44.1834,-77.5662,34.57,84,75,14.97,CA,Mon Dec 11 10:59:02 2023
248,kailua-kona,19.6406,-155.9956,78.6,82,0,8.05,US,Mon Dec 11 10:59:02 2023
249,prado,-17.3411,-39.2208,84.52,55,56,15.39,BR,Mon Dec 11 10:59:02 2023
250,taoudenni,22.6783,-3.9836,82.27,11,33,13.4,ML,Mon Dec 11 10:59:02 2023
251,lospalos,-8.5186,127.0025,74.21,92,100,3.87,TL,Mon Dec 11 10:59:03 2023
252,gisborne,-38.6533,178.0042,58.21,83,3,7.96,NZ,Mon Dec 11 10:59:03 2023
253,hithadhoo,-0.6,73.0833,82.98,75,32,6.38,MV,Mon Dec 11 10:59:03 2023
254,kirensk,57.7853,108.1119,-27.04,100,98,1.99,RU,Mon Dec 11 10:59:03 2023
255,ceerigaabo,10.6162,47.368,61.84,72,42,4.97,SO,Mon Dec 11 10:59:03 2023
256,pacific grove,36.6177,-121.9166,55.09,63,0,8.05,US,Mon Dec 11 10:55:33 2023
257,salavan,15.7167,106.4167,73.78,86,46,1.63,LA,Mon Dec 11 10:59:04 2023
258,sodankyla,67.4167,26.6,1.44,99,95,3.87,FI,Mon Dec 11 10:59:04 2023
259,canmore,51.0834,-115.3521,26.71,92,100,25.32,CA,Mon Dec 11 10:59:04 2023
260,kuanda,56.3161,116.0806,-32.96,97,61,0.74,RU,Mon Dec 11 10:59:04 2023
261,altai,46.3722,96.2583,6.31,79,99,3.15,MN,Mon Dec 11 10:59:04 2023
262,n'dalatando,-9.2978,14.9116,72.52,88,100,0.67,AO,Mon Dec 11 10:59:05 2023
263,arraial do cabo,-22.9661,-42.0278,76.96,88,75,10.36,BR,Mon Dec 11 10:59:05 2023
264,akureyri,65.6835,-18.0878,31.93,69,40,3.44,IS,Mon Dec 11 10:59:05 2023
265,nagqu,31.5,92.0,3.13,47,2,4.14,CN,Mon Dec 11 10:59:05 2023
266,heyuan,23.7333,114.6833,73.08,81,21,1.03,CN,Mon Dec 11 10:59:05 2023
267,port douglas,-16.4833,145.4667,79.43,78,100,4.36,AU,Mon Dec 11 10:59:05 2023
268,zhangjiajie,29.1294,110.4783,42.12,90,100,3.42,CN,Mon Dec 11 10:59:06 2023
269,mogok,22.9167,96.5,55.72,94,0,2.19,MM,Mon Dec 11 10:59:06 2023
270,narimanov,46.6927,47.8498,21.11,58,44,19.48,RU,Mon Dec 11 10:59:06 2023
271,touros,-5.1989,-35.4608,86.59,57,7,14.76,BR,Mon Dec 11 10:57:11 2023
272,winnemucca,40.973,-117.7357,17.65,73,0,3.44,US,Mon Dec 11 10:59:06 2023
273,mhamid,29.82,-5.72,75.09,22,73,6.71,MA,Mon Dec 11 10:59:06 2023
274,luanda,-8.8368,13.2343,84.2,80,40,8.05,AO,Mon Dec 11 10:59:06 2023
275,zahedan,29.4963,60.8629,51.71,35,0,0.0,IR,Mon Dec 11 10:59:07 2023
276,arvayheer,46.2639,102.775,5.4,91,100,4.59,MN,Mon Dec 11 10:59:07 2023
277,khash,28.2211,61.2158,57.72,23,83,5.5,IR,Mon Dec 11 10:59:07 2023
278,highland,34.1283,-117.2086,70.59,18,40,0.0,US,Mon Dec 11 10:59:07 2023
279,road town,18.4167,-64.6167,84.29,70,40,17.27,VG,Mon Dec 11 10:56:07 2023
280,eno,62.8051,30.1542,10.69,95,100,5.55,FI,Mon Dec 11 10:59:08 2023
281,deir ez-zor,35.3359,40.1408,59.85,73,100,14.27,SY,Mon Dec 11 10:59:08 2023
282,freetown,8.484,-13.2299,89.31,62,40,6.91,SL,Mon Dec 11 10:59:09 2023
283,muroto-misakicho,33.2833,134.15,66.51,94,100,22.46,JP,Mon Dec 11 10:59:09 2023
284,vorgashor,67.5833,63.95,-6.84,94,100,10.92,RU,Mon Dec 11 10:59:09 2023
285,ishinomaki,38.4167,141.3,46.4,84,100,6.58,JP,Mon Dec 11 10:59:09 2023
286,loen,7.7601,168.2307,81.79,75,94,21.52,MH,Mon Dec 11 10:59:09 2023
287,piracuruca,-3.9281,-41.7092,99.14,28,88,8.75,BR,Mon Dec 11 10:57:07 2023
288,tura,25.5198,90.2201,60.24,86,0,3.22,IN,Mon Dec 11 10:59:10 2023
289,fale old settlement,-9.3852,-171.2468,82.08,83,100,24.38,TK,Mon Dec 11 10:59:10 2023
290,luanco,43.6152,-5.7934,65.68,76,100,3.06,ES,Mon Dec 11 10:59:10 2023
291,la paz,-16.5,-68.15,55.58,62,75,4.0,BO,Mon Dec 11 10:54:21 2023
292,mugia,43.1041,-9.2179,63.91,95,100,26.66,ES,Mon Dec 11 10:59:11 2023
293,praia da vitoria,38.7333,-27.0667,63.75,88,40,11.86,PT,Mon Dec 11 10:59:11 2023
294,la sarre,48.8002,-79.1996,11.79,80,96,7.87,CA,Mon Dec 11 10:59:11 2023
295,puerto armuelles,8.2833,-82.8667,87.78,72,65,1.01,PA,Mon Dec 11 10:58:44 2023
296,myskhako,44.6714,37.7433,49.82,88,100,4.05,RU,Mon Dec 11 10:59:11 2023
297,chegdomyn,51.1167,133.0167,-23.12,98,59,1.45,RU,Mon Dec 11 10:59:12 2023
298,imbituba,-28.24,-48.6703,71.56,83,90,5.97,BR,Mon Dec 11 10:59:12 2023
299,mili,6.0815,171.735,80.74,83,100,20.87,MH,Mon Dec 11 10:59:12 2023
300,lakatoro,-16.0999,167.4164,75.09,69,100,7.27,VU,Mon Dec 11 10:59:12 2023
301,teshi old town,5.5836,-0.1072,88.36,70,20,12.66,GH,Mon Dec 11 10:59:13 2023
302,kovdor,67.5662,30.4758,0.54,98,91,4.25,RU,Mon Dec 11 10:59:13 2023
303,sijunjung,-0.6876,100.9537,73.76,99,100,1.05,ID,Mon Dec 11 10:59:13 2023
304,stettler,52.3168,-112.7186,13.75,100,6,11.5,CA,Mon Dec 11 10:59:13 2023
305,prince rupert,54.3161,-130.3201,38.89,87,75,12.66,CA,Mon Dec 11 10:55:10 2023
306,malindi,-3.2175,40.1191,80.58,81,82,8.59,KE,Mon Dec 11 10:59:14 2023
307,warrnambool,-38.3833,142.4833,61.14,87,100,16.93,AU,Mon Dec 11 10:59:14 2023
308,cooper's town,26.8667,-77.5167,75.22,77,83,17.52,BS,Mon Dec 11 10:59:14 2023
309,basciftlik,40.5469,37.1692,42.24,75,100,4.41,TR,Mon Dec 11 10:59:15 2023
310,daru,-9.0763,143.2092,78.19,87,89,6.91,PG,Mon Dec 11 10:59:15 2023
311,orita eruwa,7.55,3.4333,93.29,17,21,3.33,NG,Mon Dec 11 10:59:16 2023
312,kabalo,-6.05,26.9167,74.48,93,96,1.54,CD,Mon Dec 11 10:59:16 2023
313,miyaly,48.8844,53.7836,4.84,66,2,18.81,KZ,Mon Dec 11 10:59:16 2023
314,nar'yan-mar,67.6713,53.087,2.1,94,100,21.0,RU,Mon Dec 11 10:59:16 2023
315,gaspe,48.8334,-64.4819,40.91,100,100,6.91,CA,Mon Dec 11 10:55:41 2023
316,gimbi,9.1667,35.8333,64.92,52,85,0.83,ET,Mon Dec 11 10:59:16 2023
317,mazatlan,23.2167,-106.4167,75.9,73,0,1.99,MX,Mon Dec 11 10:58:04 2023
318,ambovombe,-25.1667,46.0833,77.94,84,99,6.82,MG,Mon Dec 11 10:59:17 2023
319,severo-yeniseyskiy,60.3725,93.0408,-40.43,100,80,1.01,RU,Mon Dec 11 10:59:17 2023
320,punta alta,-38.8759,-62.0736,92.17,25,0,33.38,AR,Mon Dec 11 10:59:17 2023
321,lompoc,34.6391,-120.4579,64.78,87,0,4.61,US,Mon Dec 11 10:59:18 2023
322,rundu,-17.9333,19.7667,87.89,29,100,7.94,NA,Mon Dec 11 10:59:18 2023
323,kadugli,11.0167,29.7167,88.61,16,100,1.28,SD,Mon Dec 11 10:59:18 2023
324,ballina,-28.8667,153.5667,64.78,83,8,2.82,AU,Mon Dec 11 10:57:32 2023
325,tagiura,32.8817,13.3506,65.1,69,30,13.24,LY,Mon Dec 11 10:59:18 2023
326,ladario,-19.0047,-57.6017,86.09,69,75,5.75,BR,Mon Dec 11 10:59:18 2023
327,plettenberg bay,-34.0527,23.3716,67.62,62,0,2.98,ZA,Mon Dec 11 10:59:19 2023
328,la ligua,-32.4524,-71.2311,73.76,51,50,10.94,CL,Mon Dec 11 10:59:19 2023
329,lata,40.1629,-8.3327,65.91,76,100,4.65,PT,Mon Dec 11 10:59:19 2023
330,argo,37.6333,22.7333,53.73,76,25,0.29,GR,Mon Dec 11 10:59:19 2023
331,mahina,-17.5065,-149.489,74.97,83,20,2.3,PF,Mon Dec 11 10:59:19 2023
332,portland,45.5234,-122.6762,50.58,95,100,5.01,US,Mon Dec 11 10:58:17 2023
333,nizao,18.25,-70.2,86.47,65,3,16.15,DO,Mon Dec 11 10:59:20 2023
334,forster,-32.1667,152.5167,63.37,100,0,6.67,AU,Mon Dec 11 10:59:20 2023
335,kudahuvadhoo,2.6708,72.8944,83.57,72,53,7.78,MV,Mon Dec 11 10:59:20 2023
336,mount isa,-20.7333,139.5,83.97,34,75,16.11,AU,Mon Dec 11 10:59:20 2023
337,xai-xai,-25.0519,33.6442,75.51,94,97,10.94,MZ,Mon Dec 11 10:59:20 2023
338,beira,-19.8436,34.8389,84.29,79,75,13.0,MZ,Mon Dec 11 10:59:21 2023
339,coyhaique,-45.5752,-72.0662,59.61,47,40,11.5,CL,Mon Dec 11 10:59:21 2023
340,luganville,-15.5333,167.1667,74.32,70,100,4.65,VU,Mon Dec 11 10:59:21 2023
341,la mira,18.035,-102.3266,81.27,56,100,8.21,MX,Mon Dec 11 10:59:21 2023
342,zhanaozen,43.3,52.8,19.53,89,8,18.23,KZ,Mon Dec 11 10:59:21 2023
343,alekseyevka,50.6309,38.6903,26.78,96,100,16.73,RU,Mon Dec 11 10:59:21 2023
344,acapulco de juarez,16.8634,-99.8901,82.22,83,75,4.61,MX,Mon Dec 11 10:55:43 2023
345,kyabe,9.4515,18.9449,87.64,15,57,3.69,TD,Mon Dec 11 10:59:22 2023
346,afaahiti,-17.75,-149.2833,73.27,80,74,22.57,PF,Mon Dec 11 10:59:22 2023
347,cova figueira,14.8905,-24.2934,76.66,50,5,12.53,CV,Mon Dec 11 10:59:22 2023
348,nchelenge,-9.3451,28.734,75.69,78,90,5.7,ZM,Mon Dec 11 10:59:22 2023
349,chifeng,42.2683,118.9636,5.72,63,29,0.96,CN,Mon Dec 11 10:59:23 2023
350,coruripe,-10.1256,-36.1756,86.54,54,16,15.43,BR,Mon Dec 11 10:59:12 2023
351,kralendijk,12.15,-68.2667,84.18,79,40,17.27,BQ,Mon Dec 11 10:55:55 2023
352,chernigovka,44.3389,132.5728,5.86,74,100,7.94,RU,Mon Dec 11 10:59:23 2023
353,sao sebastiao,-23.76,-45.4097,75.94,88,70,8.05,BR,Mon Dec 11 10:56:10 2023
354,madera,37.1666,-119.8343,52.07,68,34,0.69,US,Mon Dec 11 10:59:23 2023
355,ermoupolis,37.4423,24.9425,58.57,69,71,12.73,GR,Mon Dec 11 10:59:23 2023
356,uusikaupunki,60.8004,21.4084,19.76,92,100,9.42,FI,Mon Dec 11 10:59:24 2023
357,cheremukhovo,60.3484,59.9851,-25.04,98,100,5.01,RU,Mon Dec 11 10:59:24 2023
358,kerikeri,-35.2268,173.9474,55.9,87,21,8.57,NZ,Mon Dec 11 10:59:24 2023
359,adre,13.4667,22.2,79.07,17,70,2.37,TD,Mon Dec 11 10:59:24 2023
360,duong dong,10.2167,103.9667,77.0,94,20,1.14,VN,Mon Dec 11 10:59:24 2023
361,vorkuta,67.5,64.0,-6.68,94,100,10.25,RU,Mon Dec 11 10:59:24 2023
362,montagu,-40.7667,144.9667,59.72,90,100,16.26,AU,Mon Dec 11 10:59:24 2023
363,masterton,-40.9597,175.6575,54.88,89,74,4.43,NZ,Mon Dec 11 10:59:25 2023
364,buritis,-15.6178,-46.4233,99.86,22,45,7.54,BR,Mon Dec 11 10:59:25 2023
365,akjoujt,19.6969,-14.4164,86.94,9,1,12.48,MR,Mon Dec 11 10:59:25 2023
366,sola,-13.8833,167.55,78.33,65,100,18.3,VU,Mon Dec 11 10:59:25 2023
367,sidi bouzid,35.0382,9.4849,66.88,42,7,6.62,TN,Mon Dec 11 10:59:26 2023
368,el calafate,-50.3408,-72.2768,50.41,49,100,6.71,AR,Mon Dec 11 10:59:26 2023
369,nova sintra,14.8667,-24.7167,74.41,61,6,17.22,CV,Mon Dec 11 10:59:26 2023
370,nyurba,63.2842,118.3319,-17.32,97,100,5.84,RU,Mon Dec 11 10:59:26 2023
371,sakata,38.9167,139.855,43.74,77,100,10.11,JP,Mon Dec 11 10:59:26 2023
372,enewetak,11.3474,162.3373,82.6,76,64,15.39,MH,Mon Dec 11 10:59:27 2023
373,revda,56.801,59.9303,-29.65,100,49,2.98,RU,Mon Dec 11 10:55:39 2023
374,la gi,10.6667,107.7833,76.19,89,75,12.73,VN,Mon Dec 11 10:59:27 2023
375,alaghsas,17.0187,8.0168,78.69,21,0,21.85,NE,Mon Dec 11 10:59:27 2023
376,el charco,2.4769,-78.1105,84.94,76,85,3.96,CO,Mon Dec 11 10:59:27 2023
377,saint croix,17.7397,-64.7388,88.25,74,40,20.71,VI,Mon Dec 11 10:59:27 2023
378,mossel bay,-34.1831,22.146,75.13,68,0,7.67,ZA,Mon Dec 11 10:59:28 2023
379,manggar,-2.8833,108.2667,80.46,82,37,2.57,ID,Mon Dec 11 10:59:28 2023
380,alice springs,-23.7,133.8833,56.75,58,0,8.05,AU,Mon Dec 11 10:59:28 2023
381,tambacounda,13.7539,-13.7586,98.65,18,0,6.91,SN,Mon Dec 11 10:59:28 2023
382,chulakkurgan,43.765,69.1814,9.1,45,81,14.92,KZ,Mon Dec 11 10:59:28 2023
383,bayanhongor,46.7167,100.1167,-1.61,93,100,3.33,MN,Mon Dec 11 10:59:29 2023
384,tsiombe,-25.3,45.4833,80.47,70,97,6.38,MG,Mon Dec 11 10:59:29 2023
385,virginia,37.5481,-77.4467,45.03,84,20,13.8,US,Mon Dec 11 10:59:29 2023
386,manado,1.487,124.8455,77.77,100,40,0.0,ID,Mon Dec 11 10:59:29 2023
387,kalabo,-14.97,22.6814,84.16,41,100,1.03,ZM,Mon Dec 11 10:59:29 2023
388,visby,57.6409,18.296,32.22,93,75,10.36,SE,Mon Dec 11 10:59:29 2023
389,sesheke,-17.4759,24.2968,85.86,37,100,2.21,ZM,Mon Dec 11 10:59:29 2023
390,yemva,62.59,50.8594,2.68,86,100,12.59,RU,Mon Dec 11 10:59:30 2023
391,kattivakkam,13.2167,80.3167,78.89,72,16,11.59,IN,Mon Dec 11 10:59:30 2023
392,gunjur,13.2019,-16.7339,93.27,24,5,10.36,GM,Mon Dec 11 10:59:30 2023
393,adis zemen,12.1167,37.7833,64.85,45,40,1.68,ET,Mon Dec 11 10:59:30 2023
394,ishpeming,46.4885,-87.6676,26.37,86,42,6.4,US,Mon Dec 11 10:59:30 2023
395,paveh,35.0434,46.3565,49.64,45,100,3.58,IR,Mon Dec 11 10:59:31 2023
396,melekeok village,7.4957,134.6367,82.36,78,34,11.97,PW,Mon Dec 11 10:59:31 2023
397,pisco,-13.7,-76.2167,73.02,78,0,10.36,PE,Mon Dec 11 10:59:31 2023
398,rethymno,35.3647,24.4714,61.2,78,79,8.39,GR,Mon Dec 11 10:59:31 2023
399,parshadepur,26.0833,81.5167,62.78,32,0,3.29,IN,Mon Dec 11 10:59:31 2023
400,yarmouth,41.7057,-70.2286,46.54,96,100,21.0,US,Mon Dec 11 10:59:32 2023
401,meadow lakes,61.6247,-149.6011,38.64,75,100,16.11,US,Mon Dec 11 10:59:32 2023
402,khamis mushait,18.3064,42.7292,65.01,55,0,9.22,SA,Mon Dec 11 10:59:32 2023
403,orcopampa,-15.2661,-72.3417,51.64,75,100,3.53,PE,Mon Dec 11 10:59:32 2023
404,iskateley,67.6803,53.1512,2.01,94,100,21.0,RU,Mon Dec 11 10:59:32 2023
405,pariaman,-0.619,100.12,82.45,86,100,2.95,ID,Mon Dec 11 10:59:32 2023
406,ore,6.7457,4.8775,95.14,27,6,0.87,NG,Mon Dec 11 10:59:32 2023
407,ciudad lazaro cardenas,17.9583,-102.2,81.63,57,98,10.83,MX,Mon Dec 11 10:58:55 2023
408,dakhla,23.6848,-15.958,80.62,21,53,8.05,EH,Mon Dec 11 10:59:33 2023
409,motilla del palancar,39.5709,-1.9068,55.6,80,92,1.99,ES,Mon Dec 11 10:59:33 2023
410,srivardhan,18.0333,73.0167,77.32,73,5,5.68,IN,Mon Dec 11 10:59:33 2023
411,coahuayana de hidalgo,18.7,-103.6583,82.44,52,99,4.05,MX,Mon Dec 11 10:59:33 2023
412,val-d'or,48.1002,-77.7828,19.49,79,100,10.36,CA,Mon Dec 11 10:58:52 2023
413,cabedelo,-6.9811,-34.8339,86.67,58,26,13.49,BR,Mon Dec 11 10:59:34 2023
414,el abiodh sidi cheikh,32.893,0.5484,69.96,18,2,7.11,DZ,Mon Dec 11 10:59:20 2023
415,cariamanga,-4.3333,-79.55,74.21,41,30,3.13,EC,Mon Dec 11 10:59:34 2023
416,bani walid,31.7566,13.9942,60.91,52,0,11.61,LY,Mon Dec 11 10:59:34 2023
417,beaufort west,-32.3567,22.583,81.75,12,0,12.24,ZA,Mon Dec 11 10:59:34 2023
418,rosario oeste,-14.8361,-56.4275,94.46,43,96,6.67,BR,Mon Dec 11 10:59:34 2023
419,the pas,53.8251,-101.2541,19.42,68,100,23.02,CA,Mon Dec 11 10:59:35 2023
420,nelson,-41.2833,173.2833,49.69,72,78,12.57,NZ,Mon Dec 11 10:59:35 2023
421,formosa,-26.1775,-58.1781,88.97,63,40,9.22,AR,Mon Dec 11 10:59:35 2023
422,colchani,-20.3,-66.9333,63.9,37,91,8.32,BO,Mon Dec 11 10:59:35 2023
423,port lincoln,-34.7333,135.8667,60.78,89,44,2.44,AU,Mon Dec 11 10:59:35 2023
424,berezovyy,51.6667,135.7,-11.67,69,1,5.82,RU,Mon Dec 11 10:59:35 2023
425,guines,50.8671,1.8703,51.67,86,5,13.51,FR,Mon Dec 11 10:59:35 2023
426,guerrero negro,27.9769,-114.0611,64.53,46,93,1.48,MX,Mon Dec 11 10:59:35 2023
427,gadzhiyevo,69.2551,33.3362,8.73,90,91,16.51,RU,Mon Dec 11 10:59:36 2023
428,manokwari,-0.8667,134.0833,80.06,85,59,11.36,ID,Mon Dec 11 10:59:36 2023
429,gulf shores,30.246,-87.7008,49.05,65,0,9.22,US,Mon Dec 11 10:59:36 2023
430,skagen,57.7209,10.5839,37.26,87,100,24.29,DK,Mon Dec 11 10:59:36 2023
431,ishigaki,24.3448,124.1572,73.53,100,100,2.3,JP,Mon Dec 11 10:59:36 2023
432,najran,17.4924,44.1277,66.85,23,45,5.5,SA,Mon Dec 11 10:59:36 2023
433,ilebo,-4.3167,20.5833,78.78,87,98,2.84,CD,Mon Dec 11 10:59:36 2023
434,eyl,7.9803,49.8164,78.13,72,51,23.6,SO,Mon Dec 11 10:59:37 2023
435,box elder,41.5005,-112.8764,30.25,53,97,3.2,US,Mon Dec 11 10:59:37 2023
436,hammerfest,70.6634,23.6821,28.85,93,75,10.36,NO,Mon Dec 11 10:59:37 2023
437,saldanha,-33.0117,17.9442,73.45,75,0,21.0,ZA,Mon Dec 11 10:59:37 2023
438,burutu,5.3509,5.5076,84.4,65,72,3.36,NG,Mon Dec 11 10:59:37 2023
439,yung shue wan,22.2333,114.1167,75.31,87,2,0.74,HK,Mon Dec 11 10:59:37 2023
440,vila velha,-20.3297,-40.2925,85.95,76,75,9.22,BR,Mon Dec 11 10:59:38 2023
441,nova vicosa,-17.8919,-39.3719,85.64,59,34,18.43,BR,Mon Dec 11 10:59:38 2023
442,vernon,50.2581,-119.2691,37.29,94,96,2.3,CA,Mon Dec 11 10:51:54 2023
443,vieux-habitants,16.0589,-61.7659,78.37,75,20,12.91,GP,Mon Dec 11 10:59:38 2023
444,sihanoukville,10.6093,103.5296,78.75,94,20,3.44,KH,Mon Dec 11 10:59:38 2023
445,cumbal,0.9088,-77.7915,52.88,87,75,9.22,CO,Mon Dec 11 10:59:38 2023
446,minas de marcona,-15.2119,-75.1103,71.22,58,100,10.98,PE,Mon Dec 11 10:59:38 2023
447,inhambane,-23.865,35.3833,84.18,88,75,16.11,MZ,Mon Dec 11 10:59:38 2023
448,kolonia,50.9333,6.95,51.42,84,100,11.5,DE,Mon Dec 11 10:59:39 2023
449,vilhena,-12.7406,-60.1458,82.62,78,40,8.05,BR,Mon Dec 11 10:56:36 2023
450,island harbour,50.724,-1.2758,53.67,87,7,7.94,GB,Mon Dec 11 10:59:39 2023
451,marquette,46.5333,-87.6335,26.67,80,47,5.01,US,Mon Dec 11 10:59:39 2023
452,lagunas,-5.2269,-75.6753,94.3,46,9,3.15,PE,Mon Dec 11 10:59:39 2023
453,kloulklubed,7.0419,134.2556,83.3,75,20,13.2,PW,Mon Dec 11 10:59:39 2023
454,mezhdurechensk,53.6942,88.0603,-15.77,99,36,0.83,RU,Mon Dec 11 10:57:59 2023
455,kristiansund,63.1115,7.732,29.05,74,0,3.44,NO,Mon Dec 11 10:59:40 2023
456,pedro ii,-4.4247,-41.4586,92.19,28,85,8.72,BR,Mon Dec 11 10:59:40 2023
457,roma,43.2128,-75.4557,36.37,92,100,13.8,US,Mon Dec 11 10:59:40 2023
458,live oak,36.9836,-121.9805,55.33,65,0,3.44,US,Mon Dec 11 10:59:40 2023
459,agadez,19.75,10.25,69.94,29,0,14.41,NE,Mon Dec 11 10:59:40 2023
460,alesund,62.4723,6.1549,34.75,84,0,9.22,NO,Mon Dec 11 10:59:40 2023
461,flying fish cove,-10.4217,105.6791,76.68,83,40,6.91,CX,Mon Dec 11 10:59:40 2023
462,barry,51.4067,-3.2694,51.96,85,75,2.3,GB,Mon Dec 11 10:59:40 2023
463,hotan,37.0997,79.9269,35.83,31,100,1.92,CN,Mon Dec 11 10:59:41 2023
464,talca,-35.4333,-71.6667,79.47,29,0,3.49,CL,Mon Dec 11 10:59:41 2023
465,pakuranga,-36.8833,174.9167,60.46,65,75,20.71,NZ,Mon Dec 11 10:59:41 2023
466,emerald,-23.5333,148.1667,74.34,68,100,13.62,AU,Mon Dec 11 10:59:41 2023
467,puerto baquerizo moreno,-0.9,-89.6,79.79,74,75,13.8,EC,Mon Dec 11 10:59:41 2023
468,nguigmi,14.2495,13.1092,76.98,21,0,11.56,NE,Mon Dec 11 10:59:41 2023
469,port hueneme,34.1478,-119.1951,67.21,27,40,0.0,US,Mon Dec 11 10:56:07 2023
470,tucuma,-0.1833,-50.05,86.02,68,50,9.1,BR,Mon Dec 11 10:59:41 2023
471,santiago de cuba,20.0247,-75.8219,89.69,51,87,0.51,CU,Mon Dec 11 10:59:42 2023
472,mkushi,-13.6202,29.3939,78.76,46,99,2.8,ZM,Mon Dec 11 10:59:42 2023
473,siem reap,13.5,104.0,78.28,76,100,3.06,KH,Mon Dec 11 10:59:42 2023
474,codrington,-38.2667,141.9667,59.68,92,100,14.27,AU,Mon Dec 11 10:59:42 2023
475,toungo,8.1167,12.05,87.49,17,20,5.91,NG,Mon Dec 11 10:59:42 2023
476,quesnel,52.9999,-122.5029,25.3,93,100,0.0,CA,Mon Dec 11 10:59:42 2023
477,lerwick,60.1545,-1.1494,41.0,78,100,9.84,GB,Mon Dec 11 10:59:42 2023
478,okhotsk,59.3833,143.3,12.88,92,100,19.77,RU,Mon Dec 11 10:59:43 2023
479,dalai,45.5,124.3,-3.8,93,100,3.18,CN,Mon Dec 11 10:54:56 2023
480,igoumenitsa,39.5039,20.2656,56.86,70,75,1.9,GR,Mon Dec 11 10:59:43 2023
481,morehead city,34.7229,-76.726,48.04,74,75,16.11,US,Mon Dec 11 10:59:43 2023
482,east end,34.5507,-92.341,46.67,70,5,1.01,US,Mon Dec 11 10:59:43 2023
483,paracin,43.8608,21.4078,43.0,78,23,4.92,RS,Mon Dec 11 10:59:44 2023
484,betioky,-23.7167,44.3833,85.96,42,93,9.82,MG,Mon Dec 11 10:59:44 2023
485,hinatuan,8.3722,126.3342,77.07,90,59,4.34,PH,Mon Dec 11 10:59:44 2023
486,sinop,41.7711,34.8709,46.83,76,98,2.51,TR,Mon Dec 11 10:59:44 2023
487,newman,37.3138,-121.0208,34.14,62,11,3.47,US,Mon Dec 11 10:56:33 2023
488,hovd,48.0056,91.6419,1.35,78,97,2.15,MN,Mon Dec 11 10:59:44 2023
489,naryn,41.4287,75.9911,18.73,80,96,4.38,KG,Mon Dec 11 10:59:44 2023
490,bor,56.3567,44.0669,12.13,94,100,14.97,RU,Mon Dec 11 10:59:45 2023
491,geraldton,-28.7667,114.6,64.81,82,0,6.91,AU,Mon Dec 11 10:59:45 2023
492,hamilton,39.1834,-84.5333,35.65,79,99,4.0,US,Mon Dec 11 10:59:45 2023
493,krasnokamensk,50.0979,118.0369,-30.21,99,23,1.57,RU,Mon Dec 11 10:59:45 2023
494,sumberpucung,-8.1586,112.4829,71.85,94,92,1.14,ID,Mon Dec 11 10:59:45 2023
495,doka,13.5167,35.7667,86.4,20,80,7.78,SD,Mon Dec 11 10:59:45 2023
496,goondiwindi,-28.55,150.3167,69.53,64,13,12.3,AU,Mon Dec 11 10:59:46 2023
497,kassala,15.451,36.4,89.02,22,56,8.7,SD,Mon Dec 11 10:59:46 2023
498,tofol,5.3248,163.0078,81.91,81,74,14.12,FM,Mon Dec 11 10:59:46 2023
499,rio grande,-32.035,-52.0986,80.71,75,27,13.98,BR,Mon Dec 11 10:59:46 2023
500,al ghayzah,16.2079,52.176,77.09,48,4,6.4,YE,Mon Dec 11 10:59:46 2023
501,belmonte,-15.8631,-38.8828,84.85,55,73,10.71,BR,Mon Dec 11 10:59:47 2023
502,qaisumah,28.3112,46.1273,75.16,22,0,4.61,SA,Mon Dec 11 10:59:47 2023
503,gavrilov-yam,57.3018,39.8533,15.64,91,100,15.14,RU,Mon Dec 11 10:59:47 2023
504,misratah,32.3754,15.0925,66.96,62,0,19.37,LY,Mon Dec 11 10:59:47 2023
505,prince george,53.9166,-122.753,22.44,94,100,0.0,CA,Mon Dec 11 10:59:47 2023
506,pangoa,-12.1167,-73.0,84.81,63,11,3.44,PE,Mon Dec 11 10:59:47 2023
507,haenam,34.5711,126.5989,54.01,96,95,9.6,KR,Mon Dec 11 10:59:47 2023
508,luis correia,-2.8792,-41.6669,89.6,51,20,20.71,BR,Mon Dec 11 10:59:48 2023
509,fauske,67.2588,15.3918,25.77,81,10,7.27,NO,Mon Dec 11 10:59:48 2023
510,severnoye,56.3491,78.3619,-19.01,93,12,11.01,RU,Mon Dec 11 10:59:48 2023
511,igarka,67.4667,86.5833,-11.97,99,100,8.97,RU,Mon Dec 11 10:59:48 2023
512,kita,13.0349,-9.4895,95.05,8,4,3.65,ML,Mon Dec 11 10:59:48 2023
513,tongchuan,35.0806,109.0897,33.78,99,99,1.95,CN,Mon Dec 11 10:59:48 2023
514,mariehamn,60.0973,19.9348,30.06,86,100,8.05,AX,Mon Dec 11 10:59:48 2023
515,cajabamba,-7.6167,-78.05,68.99,51,16,5.75,PE,Mon Dec 11 10:59:49 2023
516,al kharijah,25.4514,30.5464,67.71,29,1,9.42,EG,Mon Dec 11 10:59:49 2023
517,korla,41.7597,86.1469,28.96,52,95,2.66,CN,Mon Dec 11 10:59:49 2023
518,santa elena de uairen,4.6167,-61.1333,85.3,42,86,4.21,VE,Mon Dec 11 10:59:49 2023
519,hegang,47.4,130.3667,-16.15,93,51,3.24,CN,Mon Dec 11 10:59:49 2023
520,kamloops,50.6665,-120.3192,36.57,91,100,2.3,CA,Mon Dec 11 10:59:23 2023
521,sault ste. marie,46.5168,-84.3333,25.36,72,100,0.0,CA,Mon Dec 11 10:55:16 2023
522,shubarkuduk,49.1447,56.4872,-5.78,72,6,18.63,KZ,Mon Dec 11 10:59:49 2023
523,urucara,-2.5364,-57.76,79.21,92,100,0.72,BR,Mon Dec 11 10:59:50 2023
524,abay,49.6311,72.8539,-18.02,86,100,16.93,KZ,Mon Dec 11 10:59:50 2023
525,mannarakkat,10.9833,76.4667,79.88,91,67,3.96,IN,Mon Dec 11 10:59:50 2023
526,boguchany,58.3814,97.4531,-27.15,99,84,1.99,RU,Mon Dec 11 10:59:50 2023
527,sisimiut,66.9395,-53.6735,31.1,72,100,27.16,GL,Mon Dec 11 10:59:50 2023
528,northam,51.0333,-4.2167,53.26,94,23,10.31,GB,Mon Dec 11 10:59:50 2023
529,delvada,20.7667,71.0333,73.27,56,34,1.5,IN,Mon Dec 11 10:59:50 2023
530,macau,22.2006,113.5461,77.72,88,20,3.44,MO,Mon Dec 11 10:59:50 2023
531,inyonga,-6.7167,32.0667,69.66,89,100,2.24,TZ,Mon Dec 11 10:59:51 2023
532,villanueva,15.3167,-88.0,74.39,100,100,0.0,HN,Mon Dec 11 10:59:51 2023
533,tarfaya,27.9358,-12.9218,74.98,44,2,8.39,MA,Mon Dec 11 10:59:51 2023
534,miguelopolis,-20.1794,-48.0319,80.42,46,86,4.79,BR,Mon Dec 11 10:59:51 2023
535,tianchang,37.9981,114.0156,22.69,97,100,1.07,CN,Mon Dec 11 10:59:51 2023
536,bereznik,62.8551,42.7072,9.66,93,100,9.64,RU,Mon Dec 11 10:59:51 2023
537,coxen hole,16.3244,-86.5366,79.88,78,75,8.05,HN,Mon Dec 11 10:55:26 2023
538,copala,16.65,-98.9833,82.15,63,84,1.43,MX,Mon Dec 11 10:59:51 2023
539,kadnikov,59.5022,40.338,14.02,90,100,12.08,RU,Mon Dec 11 10:59:52 2023
540,cole harbour,44.6724,-63.4751,58.39,92,100,18.41,CA,Mon Dec 11 10:59:52 2023
541,dorohoi,47.95,26.4,34.97,88,98,4.56,RO,Mon Dec 11 10:59:52 2023
542,nasiriyah,31.0521,46.261,73.42,26,53,2.28,IQ,Mon Dec 11 10:59:52 2023
543,tortoli,39.9256,9.6572,67.82,21,0,9.22,IT,Mon Dec 11 10:59:52 2023
544,antigonish,45.6169,-61.9986,60.98,84,100,13.0,CA,Mon Dec 11 10:56:40 2023
545,kashary,49.04,41.0056,28.38,95,100,21.74,RU,Mon Dec 11 10:59:52 2023
546,novodvinsk,64.4165,40.8122,4.78,93,100,7.92,RU,Mon Dec 11 10:59:53 2023
547,new plymouth,-39.0667,174.0833,55.81,76,84,17.54,NZ,Mon Dec 11 10:59:53 2023
548,somerset,40.5668,-74.5496,45.1,75,75,11.99,US,Mon Dec 11 10:59:17 2023
549,galliano,29.4422,-90.2992,52.0,46,0,10.36,US,Mon Dec 11 10:59:53 2023
550,colonia,50.9333,6.95,51.42,84,100,11.5,DE,Mon Dec 11 10:59:39 2023
551,shiqian,27.5225,108.2281,45.88,87,100,3.65,CN,Mon Dec 11 10:59:53 2023
552,chateauroux,46.8167,1.7,57.2,94,75,16.11,FR,Mon Dec 11 10:59:53 2023
553,chimoio,-19.1164,33.4833,79.09,73,56,7.96,MZ,Mon Dec 11 10:59:53 2023
554,yuzhno-kurilsk,44.0306,145.8556,33.37,76,68,5.44,RU,Mon Dec 11 10:59:53 2023
555,vuktyl,63.8567,57.3094,-10.89,93,100,11.01,RU,Mon Dec 11 10:59:54 2023
556,ugoofaaru,5.6667,73.0,82.38,77,57,5.46,MV,Mon Dec 11 10:59:54 2023
557,porto franco,-6.3383,-47.3992,87.26,62,98,5.41,BR,Mon Dec 11 10:59:54 2023
558,jayapura,-2.5333,140.7,81.79,91,76,9.66,ID,Mon Dec 11 10:59:54 2023
559,port saint john's,-31.6229,29.5448,72.07,80,99,9.31,ZA,Mon Dec 11 10:59:54 2023
560,bengkulu,-3.8004,102.2655,75.67,94,73,3.65,ID,Mon Dec 11 10:59:54 2023
561,belen,36.4891,36.2233,50.4,100,94,6.93,TR,Mon Dec 11 10:59:54 2023
562,matadi,-5.8167,13.45,87.26,69,98,2.28,CD,Mon Dec 11 10:59:55 2023
563,sedalia,38.7045,-93.2283,41.76,40,4,12.66,US,Mon Dec 11 10:59:55 2023
564,howard springs,-12.497,131.047,78.82,94,30,4.81,AU,Mon Dec 11 10:59:55 2023
565,obo,5.3998,26.4869,82.78,44,83,3.94,CF,Mon Dec 11 10:59:55 2023
